{
  "hospitals": [
    {
      "id": "h1",
      "name": "Sawai Man Singh Hospital",
      "address": "JLN Marg, Jaipur",
      "lat": 26.9062,
      "lng": 75.8137,
      "phone": "0141-2518000",
      "timings": "24 hours"
    },
    {
      "id": "h2",
      "name": "Fortis Hospital Jaipur",
      "address": "Malviya Nagar, Jaipur",
      "lat": 26.8464,
      "lng": 75.8036,
      "phone": "0141-2547000",
      "timings": "24 hours"
    },
    {
      "id": "h3",
      "name": "Narayana Multispeciality Hospital",
      "address": "Kumbha Marg, Pratap Nagar, Jaipur",
      "lat": 26.7949,
      "lng": 75.8247,
      "phone": "1800-309-0309",
      "timings": "24 hours"
    },
    {
      "id": "h4",
      "name": "Santokba Durlabhji Memorial Hospital",
      "address": "Bhawani Singh Road, Jaipur",
      "lat": 26.8943,
      "lng": 75.8100,
      "phone": "0141-2566251",
      "timings": "24 hours"
    },
    {
      "id": "h5",
      "name": "Mahatma Gandhi Hospital",
      "address": "Sitapura, Jaipur",
      "lat": 26.7880,
      "lng": 75.8420,
      "phone": "0141-2770200",
      "timings": "24 hours"
    }
  ],
  "pharmacies": [
    {
      "id": "p1",
      "name": "Apollo Pharmacy Vaishali Nagar",
      "address": "G7, Vaishali Tower, Vaishali Nagar, Jaipur",
      "lat": 26.9131,
      "lng": 75.7307,
      "phone": "040-47474747",
      "timings": "9 AM - 10 PM"
    },
    {
      "id": "p2",
      "name": "Medkart Pharmacy Bais Godam",
      "address": "3, Dhruv Marg, Parnami Block, Gurunanakpura, Jaipur",
      "lat": 26.9249,
      "lng": 75.7902,
      "phone": "9829286836",
      "timings": "9 AM - 9 PM"
    },
    {
      "id": "p3",
      "name": "Jan Aushadhi Kendra Malviya Nagar",
      "address": "Malviya Nagar, Jaipur",
      "lat": 26.8620,
      "lng": 75.8120,
      "phone": "1800-180-8080",
      "timings": "8 AM - 9 PM"
    }
  ],
  "clinics": [
    {
      "id": "c1",
      "name": "CK Birla Hospital",
      "address": "Gopalpura Bypass, Jaipur",
      "lat": 26.8751,
      "lng": 75.7646,
      "phone": "0141-3090300",
      "timings": "10 AM - 8 PM"
    },
    {
      "id": "c2",
      "name": "Apex Hospitals",
      "address": "SP-4 & 6, Malviya Industrial Area, Malviya Nagar, Jaipur",
      "lat": 26.8494,
      "lng": 75.8063,
      "phone": "0141-4965555",
      "timings": "9 AM - 7 PM"
    },
    {
      "id": "c3",
      "name": "Manipal Hospital Jaipur",
      "address": "Sector 5, Vidhyadhar Nagar, Jaipur",
      "lat": 26.9521,
      "lng": 75.7841,
      "phone": "0141-5174000",
      "timings": "24 hours"
    }
  ],
  "labs": [
    {
      "id": "l1",
      "name": "Dr Lal PathLabs",
      "address": "A-2, Shyam Nagar, Ajmer Road, Jaipur",
      "lat": 26.8980,
      "lng": 75.7580,
      "phone": "011-49885050",
      "timings": "7 AM - 9 PM"
    },
    {
      "id": "l2",
      "name": "Metropolis Healthcare",
      "address": "C-53, Sarojini Marg, C Scheme, Jaipur",
      "lat": 26.9042,
      "lng": 75.7992,
      "phone": "040-40303030",
      "timings": "7 AM - 8 PM"
    },
    {
      "id": "l3",
      "name": "SRL Diagnostics Malviya Nagar",
      "address": "C-97, Malviya Nagar, Jaipur",
      "lat": 26.8612,
      "lng": 75.8098,
      "phone": "1860-222-7745",
      "timings": "7 AM - 8 PM"
    }
  ]
}
